{
  "type": "FeatureCollection",
  "features": [
    {
      "type": "Feature",
      "geometry": {
        "type": "Point",
        "coordinates": [
          -98.473549,
          29.569931
        ]
      },
      "properties": {
        "location": "BROOKHOLLOW LIBRARY",
        "address": "530 Heimer Rd., San Antonio, TX"
      }
    },
    {
      "type": "Feature",
      "geometry": {
        "type": "Point",
        "coordinates": [
          -98.52116,
          29.521676
        ]
      },
      "properties": {
        "location": "CASTLE HILLS CITY HALL (SE CORNER OF COUNCIL CHAMBERS)",
        "address": "209 Lemonwood Dr., San Antonio, TX"
      }
    },
    {
      "type": "Feature",
      "geometry": {
        "type": "Point",
        "coordinates": [
          -98.552709,
          29.540443
        ]
      },
      "properties": {
        "location": "CODY LIBRARY",
        "address": "1141 Vance Jackson, San Antonio, TX"
      }
    },
    {
      "type": "Feature",
      "geometry": {
        "type": "Point",
        "coordinates": [
          -98.662088,
          29.483679
        ]
      },
      "properties": {
        "location": "GREAT NORTHWEST LIBRARY",
        "address": "9050 Wellwood, San Antonio, TX"
      }
    },
    {
      "type": "Feature",
      "geometry": {
        "type": "Point",
        "coordinates": [
          -98.667268,
          29.553739
        ]
      },
      "properties": {
        "location": "HELOTES CITY HALL",
        "address": "12951 Bandera Rd., San Antonio, TX"
      }
    },
    {
      "type": "Feature",
      "geometry": {
        "type": "Point",
        "coordinates": [
          -98.625491,
          29.425702
        ]
      },
      "properties": {
        "location": "HENRY A. GUERRA, JR. LIBRARY",
        "address": "7978 W Military Dr., San Antonio, TX"
      }
    },
    {
      "type": "Feature",
      "geometry": {
        "type": "Point",
        "coordinates": [
          -98.421298,
          29.578716
        ]
      },
      "properties": {
        "location": "JOHN IGO LIBRARY",
        "address": "13330 Kyle Seale Parkway, San Antonio, TX"
      }
    },
    {
      "type": "Feature",
      "geometry": {
        "type": "Point",
        "coordinates": [
          -98.639404,
          29.370712
        ]
      },
      "properties": {
        "location": "JOHNSTON LIBRARY",
        "address": "6307 Sun Valley Dr., San Antonio, TX"
      }
    },
    {
      "type": "Feature",
      "geometry": {
        "type": "Point",
        "coordinates": [
          -98.372679,
          29.578494
        ]
      },
      "properties": {
        "location": "JULIA YATES SEMMES LIBRARY @ Comanche Lookout Parkway",
        "address": "15060 Judson Rd. 15060 Judson Rd., San Antonio, TX"
      }
    },
    {
      "type": "Feature",
      "geometry": {
        "type": "Point",
        "coordinates": [
          -98.372679,
          29.578494
        ]
      },
      "properties": {
        "location": "KIRBY CITY HALL",
        "address": "15060 Judson Rd, San Antonio, TX"
      }
    },
    {
      "type": "Feature",
      "geometry": {
        "type": "Point",
        "coordinates": [
          -98.61301,
          29.500674
        ]
      },
      "properties": {
        "location": "LEON VALLEY CONFERENCE CENTER",
        "address": "6421 Evers Rd., San Antonio, TX"
      }
    },
    {
      "type": "Feature",
      "geometry": {
        "type": "Point",
        "coordinates": [
          -98.472826,
          29.452856
        ]
      },
      "properties": {
        "location": "LION’S FIELD",
        "address": "2809 Broadway, San Antonio, TX"
      }
    },
    {
      "type": "Feature",
      "geometry": {
        "type": "Point",
        "coordinates": [
          -98.735296,
          29.411001
        ]
      },
      "properties": {
        "location": "LUNA MIDDLE SCHOOL",
        "address": "200 N Grosenbacher Rd., San Antonio, TX"
      }
    },
    {
      "type": "Feature",
      "geometry": {
        "type": "Point",
        "coordinates": [
          -98.642649,
          29.521973
        ]
      },
      "properties": {
        "location": "MAURY MAVERICK, JR. LIBRARY",
        "address": "8700 Mystic Park, San Antonio, TX"
      }
    },
    {
      "type": "Feature",
      "geometry": {
        "type": "Point",
        "coordinates": [
          -98.617691,
          29.451295
        ]
      },
      "properties": {
        "location": "NORTHSIDE ACTIVITY CENTER",
        "address": "7001 Culebra, San Antonio, TX"
      }
    },
    {
      "type": "Feature",
      "geometry": {
        "type": "Point",
        "coordinates": [
          -98.490657,
          29.471896
        ]
      },
      "properties": {
        "location": "OLMOS PARK CITY HALL",
        "address": "120 West El Prado Dr., San Antonio, TX"
      }
    },
    {
      "type": "Feature",
      "geometry": {
        "type": "Point",
        "coordinates": [
          -98.517334,
          29.634844
        ]
      },
      "properties": {
        "location": "PARMAN LIBRARY @ Stone Oak",
        "address": "20735 Wilderness Oak, San Antonio, TX"
      }
    },
    {
      "type": "Feature",
      "geometry": {
        "type": "Point",
        "coordinates": [
          -98.494135,
          29.446014
        ]
      },
      "properties": {
        "location": "SAN ANTONIO COMMUNITY COLLEGE (ECO Centro Bldg)",
        "address": "1802 N. Main, San Antonio, TX"
      }
    },
    {
      "type": "Feature",
      "geometry": {
        "type": "Point",
        "coordinates": [
          -98.55497,
          29.585917
        ]
      },
      "properties": {
        "location": "SHAVANO PARK CITY HALL… (COUNCIL CHAMBERS)",
        "address": "900 Saddletree Ct., San Antonio, TX"
      }
    },
    {
      "type": "Feature",
      "geometry": {
        "type": "Point",
        "coordinates": [
          -98.499318,
          29.37242
        ]
      },
      "properties": {
        "location": "SOMERSET CITY HALL",
        "address": "7360 E. 6th, Somerset, San Antonio, TX"
      }
    },
    {
      "type": "Feature",
      "geometry": {
        "type": "Point",
        "coordinates": [
          -98.530971,
          29.356575
        ]
      },
      "properties": {
        "location": "SOUTH PARK MALL",
        "address": "2310 S.W. Military, San Antonio, TX"
      }
    },
    {
      "type": "Feature",
      "geometry": {
        "type": "Point",
        "coordinates": [
          -98.68708,
          29.438686
        ]
      },
      "properties": {
        "location": "STEVENS HIGH SCHOOL",
        "address": "600 N Ellison Dr., San Antonio, TX"
      }
    },
    {
      "type": "Feature",
      "geometry": {
        "type": "Point",
        "coordinates": [
          -98.434539,
          29.509751
        ]
      },
      "properties": {
        "location": "TOBIN LIBRARY @ OAKWELL",
        "address": "4134 Harry Wurzbach, San Antonio, TX"
      }
    },
    {
      "type": "Feature",
      "geometry": {
        "type": "Point",
        "coordinates": [
          -98.520011,
          29.448145
        ]
      },
      "properties": {
        "location": "UNIVERSAL CITY – CITY HALL",
        "address": "2150 Universal City Blvd., San Antonio, TX"
      }
    },
    {
      "type": "Feature",
      "geometry": {
        "type": "Point",
        "coordinates": [
          -98.455855,
          29.178263
        ]
      },
      "properties": {
        "location": "WATERWOOD CLUBHOUSE",
        "address": "4418 Hickory Haven Dr., San Antonio, TX"
      }
    },
    {
      "type": "Feature",
      "geometry": {
        "type": "Point",
        "coordinates": [
          -98.379819,
          29.52299
        ]
      },
      "properties": {
        "location": "WINDCREST TAKAS PARK CIVIC CENTER",
        "address": "9310 Jim Seal Dr., San Antonio, TX"
      }
    },
    {
      "type": "Feature",
      "geometry": {
        "type": "Point",
        "coordinates": [
          -98.553621,
          29.492638
        ]
      },
      "properties": {
        "location": "WONDERLAND MALL OF THE AMERICAS @ CROSSROADS",
        "address": "4522 Fredericksburg, San Antonio, TX"
      }
    }
  ]
}